{"commute_name": "Oak Avenue to Broadway", "description": "Walking and biking route analysis from 45 Oak Avenue to 1800 Broadway in Boulder, Colorado", "origin": {"address": "45 Oak Avenue, Boulder, CO 80304", "latitude": 40.0448805, "longitude": -105.2738879, "elevation_m": 1580}, "destination": {"address": "1800 Broadway, Boulder, CO 80302", "latitude": 40.0163281, "longitude": -105.2789726, "elevation_m": 1560}, "total_distance_km": 4.03, "total_distance_miles": 2.51, "elevation_drop_m": 20, "last_updated": "2026-06-30", "data_source": "OpenStreetMap", "route_segments": [{"name": "Oak Avenue", "distance_m": 97, "walking_time_s": 16, "biking_time_s": 6, "type": "residential"}, {"name": "19th Street", "distance_m": 2157, "walking_time_s": 209, "biking_time_s": 90, "type": "main_corridor"}, {"name": "20th St. Connector", "distance_m": 106, "walking_time_s": 12, "biking_time_s": 4, "type": "connector"}, {"name": "20th Street", "distance_m": 566, "walking_time_s": 69, "biking_time_s": 23, "type": "residential"}, {"name": "Pearl Street", "distance_m": 216, "walking_time_s": 26, "biking_time_s": 0, "type": "pedestrian_mall", "note": "Dismount and walk your bike"}, {"name": "18th Street", "distance_m": 249, "walking_time_s": 37, "biking_time_s": 10, "type": "downtown_connector"}, {"name": "Canyon Boulevard", "distance_m": 637, "walking_time_s": 59, "biking_time_s": 25, "type": "protected_bike_lane_corridor"}], "waypoints": [{"label": "Start: 45 Oak Ave", "lat": 40.04488, "lon": -105.27389}, {"label": "Oak → 19th St junction", "lat": 40.04488, "lon": -105.27275}, {"label": "19th St midpoint", "lat": 40.03989, "lon": -105.2727}, {"label": "20th St start", "lat": 40.03788, "lon": -105.27268}, {"label": "Pearl St area", "lat": 40.0255, "lon": -105.2726}, {"label": "18th St / Canyon Blvd", "lat": 40.01602, "lon": -105.27887}, {"label": "End: 1800 Broadway", "lat": 40.01633, "lon": -105.27897}], "walking_total_time_min": 55, "biking_total_time_min": 17, "mode_times": {"walking": {"minutes": 55, "calories_per_trip_kcal": 500, "co2_saved_kg": 0.8}, "biking": {"minutes": 17, "calories_per_trip_kcal": 250, "co2_saved_kg": 0.8}}}