{
  "route": {
    "name": "Oak Avenue to Broadway",
    "city": "Boulder, CO",
    "last_updated": "2025-06-01",
    "home": {
      "address": "45 Oak Avenue, Boulder, CO 80304",
      "latitude": 40.0448805,
      "longitude": -105.2738879,
      "elevation_m": 1580
    },
    "work": {
      "address": "1800 Broadway, Boulder, CO 80302",
      "latitude": 40.0163281,
      "longitude": -105.2789726,
      "elevation_m": 1560
    }
  },
  "distance_km": 4.03,
  "segments": [
    {
      "id": 1,
      "street": "Oak Avenue",
      "latitude": 40.0448805,
      "longitude": -105.2738879,
      "distance_m": 97,
      "walking_time_s": 73,
      "biking_time_s": 16
    },
    {
      "id": 2,
      "street": "19th Street",
      "latitude": 40.040099,
      "longitude": -105.272741,
      "distance_m": 2157,
      "walking_time_s": 290,
      "biking_time_s": 90
    },
    {
      "id": 3,
      "street": "20th St. connector",
      "latitude": 40.033903,
      "longitude": -105.272687,
      "distance_m": 106,
      "walking_time_s": 13,
      "biking_time_s": 4
    },
    {
      "id": 4,
      "street": "20th Street",
      "latitude": 40.025517,
      "longitude": -105.272523,
      "distance_m": 566,
      "walking_time_s": 418,
      "biking_time_s": 23
    },
    {
      "id": 5,
      "street": "Pearl Street (walk bike zone)",
      "latitude": 40.024026,
      "longitude": -105.271039,
      "distance_m": 216,
      "walking_time_s": 162,
      "biking_time_s": 30,
      "note": "Dismount zone — pedestrian-only mall"
    },
    {
      "id": 6,
      "street": "18th Street",
      "latitude": 40.023542,
      "longitude": -105.270871,
      "distance_m": 249,
      "walking_time_s": 185,
      "biking_time_s": 10
    },
    {
      "id": 7,
      "street": "Canyon Boulevard",
      "latitude": 40.016016,
      "longitude": -105.278866,
      "distance_m": 637,
      "walking_time_s": 388,
      "biking_time_s": 25
    }
  ],
  "totals": {
    "distance_m": 4026,
    "walking_time_min": 50,
    "biking_time_min": 17,
    "elevation_change_m": -20
  },
  "mode_scores": {
    "walking": {
      "time_min": 50,
      "co2_kg_avoided": 0.8,
      "calories_burned": 500,
      "cost_usd": 0,
      "exposure_to_elements": "moderate"
    },
    "biking": {
      "time_min": 17,
      "co2_kg_avoided": 0.8,
      "calories_burned": 250,
      "cost_usd": 0,
      "exposure_to_elements": "moderate"
    }
  },
  "nearby_blocks": [
    {
      "id": "WB-CM",
      "name": "West Boulder Commons",
      "lat": 40.01633,
      "lon": -105.27897
    }
  ]
}
