{"route": "45 Oak Avenue → 1800 Broadway", "home": {"address": "45 Oak Avenue, Boulder, CO 80304", "latitude": 40.0448805, "longitude": -105.2738879}, "work": {"address": "1800 Broadway, Boulder, CO 80302", "latitude": 40.0163281, "longitude": -105.2789726}, "generated": "2025", "data_source": "OpenStreetMap", "modes": {"walking": {"distance_km": 4.03, "duration_minutes": 48, "waypoints": [{"lat": 40.0448805, "lon": -105.2738879, "street": "Oak Avenue"}, {"lat": 40.044, "lon": -105.275, "street": "Oak Avenue/19th St"}, {"lat": 40.039, "lon": -105.2755, "street": "19th Street"}, {"lat": 40.036, "lon": -105.275, "street": "20th St"}, {"lat": 40.034, "lon": -105.277, "street": "20th Street"}, {"lat": 40.03, "lon": -105.278, "street": "Pearl Street"}, {"lat": 40.028, "lon": -105.2785, "street": "18th Street"}, {"lat": 40.0163281, "lon": -105.2789726, "street": "Canyon Boulevard/1800 Broadway"}]}, "biking": {"distance_km": 4.03, "duration_minutes": 12, "waypoints": [{"lat": 40.0448805, "lon": -105.2738879, "street": "Oak Avenue"}, {"lat": 40.039, "lon": -105.275, "street": "19th Street"}, {"lat": 40.034, "lon": -105.277, "street": "Pearl Street"}, {"lat": 40.0163281, "lon": -105.2789726, "street": "Canyon Boulevard/1800 Broadway"}]}}}